{"type":"FeatureCollection","features":[{"type":"Feature","properties":{"Name":"Blackheath Lower","Capacity (Ml)":537.6,"Construction Year":1983},"geometry":{"type":"Point","coordinates":[18.7212,-33.96173]}},{"type":"Feature","properties":{"Name":"Blackheath Upper","Capacity (Ml)":48.2,"Construction Year":1980},"geometry":{"type":"Point","coordinates":[18.711,-33.968485]}},{"type":"Feature","properties":{"Name":"Constantia Nek","Capacity (Ml)":3.7,"Construction Year":1953},"geometry":{"type":"Point","coordinates":[18.39968,-34.006159]}},{"type":"Feature","properties":{"Name":"Eastern High Level","Capacity (Ml)":4.3,"Construction Year":1932},"geometry":{"type":"Point","coordinates":[18.4125,-33.912121]}},{"type":"Feature","properties":{"Name":"Faure","Capacity (Ml)":614.2,"Construction Year":1996},"geometry":{"type":"Point","coordinates":[18.77315,-34.023199]}},{"type":"Feature","properties":{"Name":"Glen Garry","Capacity (Ml)":149.6,"Construction Year":1991},"geometry":{"type":"Point","coordinates":[18.6756,-33.856146]},"id":5},{"type":"Feature","properties":{"Name":"Hospital 10","Capacity (Ml)":10,"Construction Year":1970},"geometry":{"type":"Point","coordinates":[18.47964,-33.562812]}},{"type":"Feature","properties":{"Name":"Hospital 20","Capacity (Ml)":20,"Construction Year":1990},"geometry":{"type":"Point","coordinates":[18.47964,-33.562812]}},{"type":"Feature","properties":{"Name":"Hout Bay","Capacity (Ml)":20,"Construction Year":2000},"geometry":{"type":"Point","coordinates":[18.3673,-34.028421]}},{"type":"Feature","properties":{"Name":"Kloof Nek","Capacity (Ml)":13.6,"Construction Year":1908},"geometry":{"type":"Point","coordinates":[18.3953,-33.946878]}},{"type":"Feature","properties":{"Name":"Melkbos A","Capacity (Ml)":20,"Construction Year":1976},"geometry":{"type":"Point","coordinates":[18.4543,-33.734327]}},{"type":"Feature","properties":{"Name":"Melkbos B","Capacity (Ml)":20,"Construction Year":1987},"geometry":{"type":"Point","coordinates":[18.4526,-33.746797]}},{"type":"Feature","properties":{"Name":"Midlands","Capacity (Ml)":10,"Construction Year":1995},"geometry":{"type":"Point","coordinates":[18.4155,-33.545723]}},{"type":"Feature","properties":{"Name":"Molteno","Capacity (Ml)":188.1,"Construction Year":1886},"geometry":{"type":"Point","coordinates":[18.41235,-33.938588]}},{"type":"Feature","properties":{"Name":"Monterey","Capacity (Ml)":29,"Construction Year":1972},"geometry":{"type":"Point","coordinates":[18.4569,-34.015733]}},{"type":"Feature","properties":{"Name":"Newlands Lower","Capacity (Ml)":46,"Construction Year":1950},"geometry":{"type":"Point","coordinates":[18.453,-33.966909]}},{"type":"Feature","properties":{"Name":"Newlands Upper","Capacity (Ml)":132.6,"Construction Year":1905},"geometry":{"type":"Point","coordinates":[18.45061,-33.966273]}},{"type":"Feature","properties":{"Name":"Oranjezicht","Capacity (Ml)":16.3,"Construction Year":1988},"geometry":{"type":"Point","coordinates":[18.4066,-33.945046]}},{"type":"Feature","properties":{"Name":"Pella 10","Capacity (Ml)":10,"Construction Year":1975},"geometry":{"type":"Point","coordinates":[18.5083,-33.535684]}},{"type":"Feature","properties":{"Name":"Pella 40","Capacity (Ml)":40,"Construction Year":1981},"geometry":{"type":"Point","coordinates":[18.5077,-33.53497]}},{"type":"Feature","properties":{"Name":"Plattekloof","Capacity (Ml)":583.6,"Construction Year":1974},"geometry":{"type":"Point","coordinates":[18.57748,-33.866829]}},{"type":"Feature","properties":{"Name":"Tygerberg No. 1","Capacity (Ml)":33.4,"Construction Year":1952},"geometry":{"type":"Point","coordinates":[18.60499,-33.874577]}},{"type":"Feature","properties":{"Name":"Tygerberg No. 2","Capacity (Ml)":264.3,"Construction Year":1962},"geometry":{"type":"Point","coordinates":[18.6004,-33.860423]}},{"type":"Feature","properties":{"Name":"Wynberg No. 1","Capacity (Ml)":8.4,"Construction Year":1897},"geometry":{"type":"Point","coordinates":[18.4486,-33.994868]}},{"type":"Feature","properties":{"Name":"Wynberg No. 2","Capacity (Ml)":22.2,"Construction Year":1949},"geometry":{"type":"Point","coordinates":[18.45165,-33.998536]}},{"type":"Feature","properties":{"Name":"Spes Bona","Capacity (Ml)":35,"Construction Year":2017},"geometry":{"type":"Point","coordinates":[18.66667,-33.77083]}},{"type":"Feature","properties":{"Name":"De Grendel","Capacity (Ml)":25,"Construction Year":2014},"geometry":{"type":"Point","coordinates":[18.56278,-33.82389]}}]}